objectid,title,location,address,city,state,zip_code,subject,datebuilt_architect,latitude,longitude,architect,filename,rights,format,date_all,date
iaahs001,Bensalem A.M.E. Church / Little Jerusalem A.M.E. Church,Bucks County,1200 Bridgewater Rd.,Bensalem,PA,19020,church,"ca. 1832; alterations, 1860, 1896",40.0007282,-75.1705032,,https://upload.wikimedia.org/wikipedia/commons/thumb/b/be/BensalemPA_JerusalemAMEChurch.jpg/1920px-BensalemPA_JerusalemAMEChurch.jpg,"By User:Magicpiano - Own work, CC BY-SA 4.0, https://commons.wikimedia.org/w/index.php?curid=19246380",image/jpeg,1832;1860;1896,1832
iaahs002,London Coffee House,Center City,Front and Market Sts.,Philadelphia,PA,19106,,"1702, Charles Reed",39.949809,-75.14413,Charles Reed,https://upload.wikimedia.org/wikipedia/commons/thumb/1/10/The_London_coffee_house_-_THM._LCCN92520160.jpg/1505px-The_London_coffee_house_-_THM._LCCN92520160.jpg,"By Mumford, Thomas Howland, 1816-, engraver - Library of CongressCatalog: https://lccn.loc.gov/92520160Image download: https://cdn.loc.gov/service/pnp/cph/3c00000/3c06000/3c06800/3c06832v.jpgOriginal url: https://www.loc.gov/pictures/item/92520160/, Public Domain, https://commons.wikimedia.org/w/index.php?curid=68136125",image/jpeg,1702,1702
iaahs003,Royal Theater,Center City,1524-1534 South St.,Philadelphia,PA,19146,theater,"1919, Frank E. Hahn",39.943754,-75.166382,Frank E. Hahn,https://upload.wikimedia.org/wikipedia/commons/thumb/d/d9/RoyalTheaterPhilly.JPG/1600px-RoyalTheaterPhilly.JPG,"By Smallbones - Own work, Public Domain, https://commons.wikimedia.org/w/index.php?curid=9488951",image/jpeg,1919,1919
iaahs004,Pennsylvania Academy of Fine Arts,Center City,118-26 N. Broad St.,Philadelphia,PA,19102,museum; school,"1872, 1876; Frank Furness",39.955217,-75.163669,Frank Furness,https://upload.wikimedia.org/wikipedia/commons/thumb/a/ab/Pennsylvania_Academy_of_the_Fine_Arts_building.jpg/1920px-Pennsylvania_Academy_of_the_Fine_Arts_building.jpg,"By Difference engine - Own work, CC BY-SA 4.0, https://commons.wikimedia.org/w/index.php?curid=59390739",image/jpeg,1872;1876;,1872
iaahs005,African Episcopal Church of St. Thomas Site #2,Center City,203-209 S. 12th St.,Philadelphia,PA,19107,church,"1889-1890, Frank Miller",39.9484753,-75.1603797,Frank Miller,https://upload.wikimedia.org/wikipedia/commons/3/30/African_Episcopal_Church_of_St._Thomas.jpg,"By unknown but June 1829 - http://archive.episcopalchurch.org/images/AAM_parchment_photo1829.jpg, Public Domain, https://commons.wikimedia.org/w/index.php?curid=32494834",image/jpeg,1889;1890,1889
iaahs006,Washington Square,Center City,6th and Walnut St.,Philadelphia,PA,19106,park; cemetery,"1683, 1911; G. Bridgeport, JohnHaviland",39.990821,-75.168428,"G. Bridgeport, John Haviland",https://upload.wikimedia.org/wikipedia/commons/3/37/Washington_Square_2018.jpg,"By Ii2nmd at English Wikipedia, CC BY-SA 4.0, https://commons.wikimedia.org/w/index.php?curid=75085115",image/jpeg,1683;1911;,1683
iaahs007,Mother Bethel A.M.E. Church,Center City,419 S. 6th St.,Philadelphia,PA,19147,church; museum,"1794; 1889, Hazlehurst & Huckel",39.943333,-75.151737,Hazlehurst & Huckel,https://upload.wikimedia.org/wikipedia/commons/thumb/3/39/Mother_Bethel_Philly_a.JPG/1920px-Mother_Bethel_Philly_a.JPG,"By Smallbones - Own work, CC0, https://commons.wikimedia.org/w/index.php?curid=31144257",image/jpeg,1794; 1889,1794
iaahs008,Durham Public School / Independent Charter School,Center City,1600 Lombard St.,Philadelphia,PA,19146,school,"1909-1910, Henry deCourcy Richards",39.972633,-75.155743,Henry deCourcy Richards,https://upload.wikimedia.org/wikipedia/commons/thumb/e/ef/Durham_School_in_Philly.JPG/1920px-Durham_School_in_Philly.JPG,"By Smallbones - Own work, Public Domain, https://commons.wikimedia.org/w/index.php?curid=9550522",image/jpeg,1909;1910,1909
iaahs009,Earle Theater,Center City,11th and Market Sts.,Philadelphia,PA,19107,theater,"1921-1924, Hoffman-Henon Co.; alterations, 1925, 1928, Hoffman-Henon Co.; demolished 1953",39.919528,-75.276247,Hoffman-Henon Co.;Hoffman-Henon Co.,https://upload.wikimedia.org/wikipedia/commons/thumb/1/13/Earle_theater_Philadelphia_1928.jpg/440px-Earle_theater_Philadelphia_1928.jpg,"By York Ice Machinery - Motion Picture News, Public Domain, https://commons.wikimedia.org/w/index.php?curid=95627005",image/jpeg,1921;1924;1925;1928;1953,1921
iaahs010,Chateau Crillon Apartment Building,Center City,222 S. 19th St.,Philadelphia,PA,19103,apartment house,"1928, Horace Trumbauer (Julian Abele)",39.9418565,-75.165939,Horace Trumbauer (Julian Abele),https://upload.wikimedia.org/wikipedia/commons/thumb/8/8b/Chateau_Crillon_2.JPG/800px-Chateau_Crillon_2.JPG,"By Smallbones - Own work, Public Domain, https://commons.wikimedia.org/w/index.php?curid=9585798",image/jpeg,1928,1928
iaahs011,"Free Library of Philadelphia, Central Branch",Center City,1901 Vine St.,Philadelphia,PA,19103,library,"ca. 1927, Horace Trumbauer (Julian Abele)",39.95993,-75.170948,Horace Trumbauer (Julian Abele),https://upload.wikimedia.org/wikipedia/commons/thumb/3/31/The_Free_Library_of_Philadelphia.jpg/1920px-The_Free_Library_of_Philadelphia.jpg,"By Nanoman657 - Own work, CC BY-SA 3.0, https://commons.wikimedia.org/w/index.php?curid=15303888",image/jpeg,1927,1927
iaahs012,Hahnemann Medical College Out-patient's Building,Center City,15th St. above Race St.,Philadelphia,PA,19102,,"ca. 1947, Horace Trumbauer (Julian Abele)",39.990821,-75.168428,Horace Trumbauer (Julian Abele),https://upload.wikimedia.org/wikipedia/commons/thumb/b/b5/History_of_the_Homoeopathic_Medical_College_of_Pennsylvania_-_the_Hahnemann_Medical_College_and_Hospital_of_Philadelphia_%281898%29_%2814577881388%29.jpg/1280px-History_of_the_Homoeopathic_Medical_College_of_Pennsylvania_-_the_Hahnemann_Medical_College_and_Hospital_of_Philadelphia_%281898%29_%2814577881388%29.jpg,"By Internet Archive Book Images - https://www.flickr.com/photos/internetarchivebookimages/14577881388/Source book page: https://archive.org/stream/historyofhomoeop00brad/historyofhomoeop00brad#page/n254/mode/1up, No restrictions, https://commons.wikimedia.org/w/index.php?curid=43675478",image/jpeg,1947,1947
iaahs013,Jefferson Medical College Curtis Building,Center City,1015 Walnut St.,Philadelphia,PA,19107,,"ca. 1929, Horace Trumbauer (Julian Abele)",39.948773,-75.157591,Horace Trumbauer (Julian Abele),https://upload.wikimedia.org/wikipedia/commons/thumb/0/04/Jefferson_University_College_and_Curtis_Buildings_1025_Walnut_Street.jpg/1024px-Jefferson_University_College_and_Curtis_Buildings_1025_Walnut_Street.jpg?20130530194111,"By Beyond My Ken - Own work, CC BY-SA 4.0, https://commons.wikimedia.org/w/index.php?curid=26408466",image/jpeg,1929,1929
iaahs014,All-Wars Memorial to Black Soldiers,Center City,19th and the Parkway,Philadelphia,PA,19103,monument,"1934, J. Otto Schweizer",39.9739597,-75.1631341,J. Otto Schweizer,https://upload.wikimedia.org/wikipedia/commons/thumb/d/d1/All_Wars_Memorial_to_Colored_Soldiers_and_Sailors_-_Philadelphia%2C_PA_-_DSC06524.JPG/1024px-All_Wars_Memorial_to_Colored_Soldiers_and_Sailors_-_Philadelphia%2C_PA_-_DSC06524.JPG,"By Daderot - Self-photographed, Public Domain, https://commons.wikimedia.org/w/index.php?curid=17110692",image/jpeg,1934,1934
iaahs015,Christ Church,Center City,20 N. American St.,Philadelphia,PA,19106,church,"1727-1754, John Kearsley; numerous alterations",39.9859239,-75.1632481,John Kearsley,https://upload.wikimedia.org/wikipedia/commons/thumb/a/a7/Christ_Church_Phila_crop.JPG/500px-Christ_Church_Phila_crop.JPG,"By PVSBond at English Wikipedia, CC BY-SA 3.0, https://commons.wikimedia.org/w/index.php?curid=18750815",image/jpeg,1727;1754,1727
iaahs016,Philadelphia Knights of Pythias,Center City,19th and Addison Sts.,Philadelphia,PA,19146,,"1923, Lackman & Murphy",39.990821,-75.168428,Lackman & Murphy,https://upload.wikimedia.org/wikipedia/commons/6/66/GreenwoodSign.jpg,"By BillFlis - Own work, Public Domain, https://commons.wikimedia.org/w/index.php?curid=5658134",image/jpeg,1923,1923
iaahs017,Arch Street Friends Meeting House,Center City,302-338 Arch St.,Philadelphia,PA,19106,church,"1804, O. Biddle",39.9447626,-75.1674205,O. Biddle,https://upload.wikimedia.org/wikipedia/commons/thumb/a/ab/Arch_Street_Friends_Meeting_House_%2853572939205%29.jpg/2560px-Arch_Street_Friends_Meeting_House_%2853572939205%29.jpg,"By ajay_suresh - Arch Street Friends Meeting House, CC BY 2.0, https://commons.wikimedia.org/w/index.php?curid=146141631",image/jpeg,1804,1804
iaahs018,Engine 11 Fire Station,Center City,1016-18 South St.,Philadelphia,PA,19147,fire station,"ca. 1902, Philip Johnson",39.942643,-75.159251,Philip Johnson,https://upload.wikimedia.org/wikipedia/commons/a/ab/Engine_11_%28145711785%29.jpeg,"By Jason Knauer - Imported from 500px (archived version) by the Archive Team. (detail page), CC BY 3.0, https://commons.wikimedia.org/w/index.php?curid=84709460",image/jpeg,1902,1902
iaahs019,Standard Theater,Center City,1124-8 South St.,Philadelphia,PA,19147,theater,"alterations, 1889, Rowe & Dagit; alterations, 1892, A. Wade",39.943754,-75.166382,Rowe & Dagit;A. Wade,https://upload.wikimedia.org/wikipedia/commons/thumb/8/8c/Gibson%27s_New_Standard_Theatre_Philadelphia_PA_%281919%29.jpg/792px-Gibson%27s_New_Standard_Theatre_Philadelphia_PA_%281919%29.jpg,"By Editor-in-Chief Clement Richardson - The National Cyclopedia of the Colored Race, Editor-in-Chief Clement Richardson (1919) National Publishing Co., Inc. Montgomery AL (https://archive.org/details/nationalcycloped01richrich/page/n4), Public Domain, https://commons.wikimedia.org/w/index.php?curid=83211989",image/jpeg,1889;1892,1889
iaahs020,St. Peter Claver Roman Catholic Church / Fourth Presbyterian Church,Center City,1200-1210 Lombard St.,Philadelphia,PA,19147,church,"1841-1842, Thomas Ustick Walter; alterations and rectory, 1895, E. F. Durang",39.943947,-75.159541,Thomas Ustick Walter;E. F. Durang,https://upload.wikimedia.org/wikipedia/commons/thumb/0/00/St_Peter_Claver_Catholic_Church_Historical_Marker_1200_Lombard_St_Philadelphia_PA_%28DSC_3200%29.jpg/1920px-St_Peter_Claver_Catholic_Church_Historical_Marker_1200_Lombard_St_Philadelphia_PA_%28DSC_3200%29.jpg?20191120212640,"By Nick-philly - Own work, CC BY-SA 4.0, https://commons.wikimedia.org/w/index.php?curid=84184051",image/jpeg,1841;1842;1895,1841
iaahs021,St. Paul Church / Mask and Wig Club,Center City,312 S. Quince St.,Philadelphia,PA,19107,church,"ca. 1834; alterations, 1843-1853; alterations, 1894, 1903, Wilson Eyre",39.94644,-75.160266,Wilson Eyre,https://upload.wikimedia.org/wikipedia/commons/4/4f/Mask%26Wig.jpg,"By George A. Eisenman, HABS photographer - Library of Congress, Historic American Buildings Survey, HABS PA,51-PHILA,551-1, Public Domain, https://commons.wikimedia.org/w/index.php?curid=7878092",image/jpeg,1834;1843;1853;1894;1903,1834
iaahs022,A. M. E. Book Concern,Center City,631 Pine St.,Philadelphia,PA,19106,,,39.944173,-75.1529647,,https://upload.wikimedia.org/wikipedia/commons/thumb/0/09/A_M_E_Book_Concern_Historical_Marker_631_Pine_St_Philadelphia_PA_%28DSC_3438%29.jpg/1920px-A_M_E_Book_Concern_Historical_Marker_631_Pine_St_Philadelphia_PA_%28DSC_3438%29.jpg?20191120212629,"By Nick-philly - Own work, CC BY-SA 4.0, https://commons.wikimedia.org/w/index.php?curid=84184041",image/jpeg,,
iaahs023,Benezet's School / Quaker African School House,Center City,Willings Alley,Philadelphia,PA,19106,school,,40.0991261,-74.9235652,,,,record,,
iaahs024,Benjamin Banneker Institute,Center City,409 S. 11th St.,Philadelphia,PA,19147,,,39.963052,-75.198687,,https://upload.wikimedia.org/wikipedia/commons/f/fd/Benjamin_Banneker_Institute_Historical_Marker_409_S_11th_St_Philadelphia_PA_%28DSC_4213%29.jpg,"By NMGiovannucci - Own work, CC BY-SA 4.0, https://commons.wikimedia.org/w/index.php?curid=110457052",image/jpeg,,
iaahs025,Dunbar Theater / Lincoln Theater,Center City,Broad and Lombard Streets.,Philadelphia,PA,19146,theater,,37.9365752,-87.8768004,,https://upload.wikimedia.org/wikipedia/commons/thumb/f/f4/The_Dunbar_Theatre_Historical_Marker_Southwest_Corner_Broad_and_Lombard_Streets_Philadelphia_PA_%28DSC_3182%29.jpg/1920px-The_Dunbar_Theatre_Historical_Marker_Southwest_Corner_Broad_and_Lombard_Streets_Philadelphia_PA_%28DSC_3182%29.jpg?20191101210248,"By Nick-philly - Own work, CC BY-SA 4.0, https://commons.wikimedia.org/w/index.php?curid=83579365",image/jpeg,,
iaahs026,Female Anti-Slavery Society,Center City,107 N. 5th St.,Philadelphia,PA,19106,,,39.966843,-75.145813,,https://upload.wikimedia.org/wikipedia/en/1/12/PFASS_seal.jpg,"Public Domain, https://en.wikipedia.org/w/index.php?curid=49447722",image/jpeg,,
iaahs027,Frederick Douglass Memorial Hospital,Center City,1512 or 1522 Lombard St.,Philadelphia,PA,19146,hospital,,39.990821,-75.168428,,https://upload.wikimedia.org/wikipedia/commons/thumb/e/e3/Frederick_Douglass_Memorial_Hospital_Historical_Marker_1526_Lombard_St_Philadelphia_PA_%28DSC_4426%29_%28cropped%29.jpg/898px-Frederick_Douglass_Memorial_Hospital_Historical_Marker_1526_Lombard_St_Philadelphia_PA_%28DSC_4426%29_%28cropped%29.jpg?20240229041440,"By NMGiovannucci - Own work, CC BY-SA 4.0, https://commons.wikimedia.org/w/index.php?curid=145928725",image/jpeg,,
iaahs028,Free African Society,Center City,6th and Lombard Sts.,Philadelphia,PA,19147,,,39.94258,-75.149553,,https://upload.wikimedia.org/wikipedia/commons/b/bb/Absalom-Jones_Peale.jpg,"By Raphaelle Peale - Delaware Art Museum, User:Delart, Public Domain, https://commons.wikimedia.org/w/index.php?curid=6055954",image/jpeg,,
iaahs029,Grendel's Lair,Center City,500 South St.,Philadelphia,PA,19147,,,39.941747,-75.150875,,https://digital.library.temple.edu/digital/api/singleitem/image/p15037coll3/190/default.jpg?highlightTerms=Grendel%27s%20Lair,"This material is subject to copyright law and is made available for private study, scholarship, and research purposes only. For access to the original or a high resolution reproduction, and for permission to publish, please contact Temple University Libraries, Special Collections Research Center, scrc@temple.edu, 215-204-8257.",image/jpeg,,
iaahs030,Historic St. George's Methodist Church,Center City,235 N. 4th St.,Philadelphia,PA,19106,church,"1767, 1812",39.992082,-75.138301,,https://tile.loc.gov/storage-services/service/pnp/habshaer/pa/pa0800/pa0801/photos/139825pv.jpg,No known restrictions on images made by the U.S. Government; images copied from other sources may be restricted. https://www.loc.gov/rr/print/res/114_habs.html,image/jpeg,1767;1812,1767
iaahs031,"James Forten, Sr. House / Charlotte Forten House",Center City,336 Lombard St.,Philadelphia,PA,19147,dwelling,,39.943947,-75.159541,,https://upload.wikimedia.org/wikipedia/commons/4/4a/James_Forten_School.jpg,"By John Trevor Custis - https://www.philadelphiabuildings.org/pab/app/im_display.cfm/507052?ProjectId=A58FFA28-E058-4F08-A5BE25FAB9D4BFD0, Public Domain, https://commons.wikimedia.org/w/index.php?curid=146540233",image/jpeg,,
iaahs032,Liberation of Jane Johnson,Center City,211 S. Columbus Blvd.,Philadelphia,PA,19106,,,39.990821,-75.168428,,https://upload.wikimedia.org/wikipedia/commons/c/c3/Rescue_of_Jane_Johnson.png,"By William Still / ""Engravings by Bensell, Schell, and others."" - The underground rail road. A record of facts, authentic narratives, letters, &c., narrating the hardships, hair-breadth escapes, and death struggles of the slaves in their efforts for freedom, as related by themselves and others, or witnessed by the author; together with sketches of some of the largest stockholders, and most liberal aiders and advisers, of the road. William Still, 1872. (Available from archive.org.), Public Domain, https://commons.wikimedia.org/w/index.php?curid=34858978",image/jpeg,,
iaahs033,Lombard Street Riot,Center City,6th & Lombard,Philadelphia,PA,19147,,n/a,39.94258,-75.149553,,https://upload.wikimedia.org/wikipedia/commons/c/c3/Rescue_of_Jane_Johnson.png,"By Bucholzer, H., artist - Library of CongressCatalog: http://lccn.loc.gov/2003654121Image download: http://cdn.loc.gov/service/pnp/pga/05200/05259v.jpgOriginal url: https://www.loc.gov/pictures/item/2003654121/, Public Domain, https://commons.wikimedia.org/w/index.php?curid=66174047",image/jpeg,,
iaahs034,Octavius V. Catto House Site,Center City,814 South St.,Philadelphia,PA,19147,dwelling,demolished ca. 1990,39.942303,-75.156023,,https://upload.wikimedia.org/wikipedia/commons/d/db/Octavius_Catto.jpg,"By Unknown author - Metadata says Smithsonian Institution but is visually the same image from https://exhibits.library.villanova.edu/institute-colored-youth/graduates/ov-catto/, Public Domain, https://commons.wikimedia.org/w/index.php?curid=3167085",image/jpeg,1990,1990
iaahs035,Octavius V. Catto School Building #2,Center City,2028-2038 Lombard St.,Philadelphia,PA,19146,school,,39.943947,-75.159541,,https://upload.wikimedia.org/wikipedia/commons/1/1c/Octavius_V_Catto_Secondary_School_Colored_Lombard_Street_above_Twentieth_Philadelphia_PA_%281897%29.jpg,"By Burk & McFetridge - The Public Schools of Philadelphia: Historical, Biographical, Statistical by John Trevor Custis, Burk & McFetridge Co. Publisher, 1897 (https://archive.org/details/publicschoolsph00custgoog/), Public Domain, https://commons.wikimedia.org/w/index.php?curid=83085831",image/jpeg,,
iaahs036,ODUNDE Festival,Center City,23rd and South Sts.,Philadelphia,PA,19146,,,39.990821,-75.168428,,https://upload.wikimedia.org/wikipedia/commons/7/7d/OdundeFestivalGraysFerry.jpg,"By 4t4grfgz - my cameraPreviously published: my camera, CC BY-SA 3.0, https://commons.wikimedia.org/w/index.php?curid=26571835",image/jpeg,,
iaahs037,Pennsylvania Abolition Society,Center City,"Front St., below Chestnut St.",Philadelphia,PA,19106,,,39.990821,-75.168428,,https://upload.wikimedia.org/wikipedia/commons/3/30/1851_photograph_of_Philadelphia_abolitionists%2C_Pennsylvania_Abolition_Society_fonded_april_14th_1775.png,"By Pennsylvania Anti-Slavery Society par Edu.lva.virginia.gov - Own work, CC BY-SA 4.0, https://commons.wikimedia.org/w/index.php?curid=129483275",image/jpeg,,
iaahs038,Pennsylvania Hall,Center City,6th and Haines Sts.,Philadelphia,PA,,hall,1838; burned 1838,39.990821,-75.168428,,https://upload.wikimedia.org/wikipedia/commons/c/c8/Pennsylvania_Hall_%28Philadelphia%29.jpg,"By History of Pennsylvania Hall (Phila.: Mayhew and Gunn, 1838) - http://www.pfj-maritime.com/web/TheTeam/StephenPayne.aspx, Public Domain, https://commons.wikimedia.org/w/index.php?curid=22029410",image/jpeg,1838;1838,1838
iaahs039,Robert Bogle Catering Establishment,Center City,112 S. 8th St.,Philadelphia,PA,19107,caterer,,39.94909,-75.15425,,,,record,,
iaahs040,Robert Mara Adger House,Center City,823 South St.,Philadelphia,PA,19147,dwelling,,39.943754,-75.166382,,,,record,,
iaahs041,Thaddeus Kosciuszko House / Kosciuszko National Memorial,Center City,301-303 Pine St.,Philadelphia,PA,19106,dwelling,1750-1780,39.953331,-75.224626,,https://upload.wikimedia.org/wikipedia/commons/f/ff/Thaddeus-Kosciuszko-NMem.jpg,"By Jack Boucher - Library of Congress, Historic American Buildings Survey: HABS PA,51-PHILA,536-2http://memory.loc.gov/pnp/habshaer/pa/pa1200/pa1222/photos/139037pv.jpg, Public Domain, https://commons.wikimedia.org/w/index.php?curid=845289",image/jpeg,1750;1780,1750
iaahs042,Wesley A.M.E. Zion Church,Center City,1500-1504 Lombard St.,Philadelphia,PA,19146,church,"1925, 1926",39.943947,-75.159541,,https://upload.wikimedia.org/wikipedia/commons/thumb/e/eb/Wesley_AME_Zion_Philly.JPG/1920px-Wesley_AME_Zion_Philly.JPG,"By Smallbones - Own work, CC0, https://commons.wikimedia.org/w/index.php?curid=31144251",image/jpeg,1925;1926,1925
iaahs043,Church of the Advocate,North,1801 W. Diamond St.,Philadelphia,PA,19121,church,"1891, 1897,  Charles M. Burns",39.9410541,-75.1664937,Charles M. Burns,https://upload.wikimedia.org/wikipedia/commons/2/2d/Church-of-the-Advocate-Phila.png,"By Unknown author - Library of Congress, Historic American Buildings Survey: HABS PA,51-PHILA,734-2, Public Domain, https://commons.wikimedia.org/w/index.php?curid=4093845",image/jpeg,1891;1897,1891
iaahs044,Greater Exodus Baptist Church / Our Lady of Blessed Sacrament / Central Presbyterian Church,North,708-714 N. Broad St.,Philadelphia,PA,19130,church,"ca. 1877, Collins Autenreith",40.010581,-75.150898,Collins Autenreith,,,record,1877,1877
iaahs045,Uptown Theater,North,2240 N. Broad St.,Philadelphia,PA,19132,theater,"1927, 1929, E. Magiziner, H. Magiziner",39.987403,-75.15652,E. Magiziner; H. Magiziner,https://upload.wikimedia.org/wikipedia/commons/4/4c/Uptown_Theater%2C_Broad_St%2C_Philly_1.JPG,"By Smallbones - Own work, CC0, https://commons.wikimedia.org/w/index.php?curid=34097882",image/jpeg,1927;1929,1927
iaahs046,Peter A. B. Widener Mausoleum (Laurel Hill Cemetery),North,3822 Ridge Ave.,Philadelphia,PA,19132,mausoleum,"mausoleum ca. 1915, Horace Trumbauer (Julian Abele)",39.96086,-75.156768,Horace Trumbauer (Julian Abele),https://upload.wikimedia.org/wikipedia/commons/3/36/Peter_Widener_Mausoleum.jpg,"By Dwkaminski - Own work, CC BY-SA 4.0, https://commons.wikimedia.org/w/index.php?curid=91432494",image/jpeg,1915,1915
iaahs047,Wayland Temple Baptist Church / Columbia Avenue Methodist Church,North,2500 Cecil B. Moore Ave.,Philadelphia,PA,19121,church,"1888, Oscar Frotscher; alterations, 1916, George Savage",39.980753,-75.175932,Oscar Frotscher;George Savage,https://digital.librarycompany.org/islandora/object/digitool%3A97555/datastream/TN/view?solr_nav%5Bid%5D=13ab8e35ada705663cae&solr_nav%5Bpage%5D=0&solr_nav%5Boffset%5D=0,"Libray Company of Philadelphia, https://www.librarycompany.org/",image/jpeg,1888;1916,1888
iaahs048,Zion Baptist Church / St. Paul Reformed Church / Trinity Reformed Church,North,3600 N. Broad St.,Philadelphia,PA,19140,church,"1904, Stearns & Castor; alterations, 1914, Stearns & Castor; alterations, 1973, Eshbach, Glass, Kale & Associates",40.007963,-75.152024,"Stearns & Castor;Stearns & Castor;Eshbach, Glass, Kale & Associates",https://upload.wikimedia.org/wikipedia/commons/8/8b/ZION_EDUCATIONAL_ANNEX_AND_ZION_BAPTIST_CHURCH_NORTH_PHILADELPHIA.jpg,"By JERRYE & ROY KLOTZ M.D. - Own work, CC BY-SA 4.0, https://commons.wikimedia.org/w/index.php?curid=132358337",image/jpeg,1904;1914;1973,1904
iaahs049,Freedom Theatre,North,1346 N. Broad St.,Philadelphia,PA,19121,theater,"1853, 1865; Stephen D. Button",40.010581,-75.150898,Stephen D. Button,,,record,1853;1865,1853
iaahs050,Berean Presbyterian Church Site / Berean Institute,North,1906-1926 S. College Ave.,Philadelphia,PA,19121,church,"1884; 1888, T. P. Chandler",39.9399634,-75.1647782,T. P. Chandler,,,record,1884; 1888,1884
iaahs051,Universal Negro Improvement Association (UNIA),North,1609-11 Cecil B. Moore Ave.,Philadelphia,PA,19121,,"ca. 1894, Thomas Lonsdale",39.979375,-75.161489,Thomas Lonsdale,https://digital.library.temple.edu/digital/api/singleitem/image/p15037coll3/12037/default.jpg?highlightTerms=Universal%20Negro%20Improvement%20Association,"This material is subject to copyright law and is made available for private study, scholarship, and research purposes only. For access to the original or a high resolution reproduction, and for permission to publish, please contact Temple University Libraries, Special Collections Research Center, scrc@temple.edu, 215-204-8257.",image/jpeg,1894,1894
iaahs052,Girard College,North,2101 S. College Ave.,Philadelphia,PA,19121,school,"1833, Thomas Ustick Walter; 1968",39.972627,-75.173802,Thomas Ustick Walter,https://upload.wikimedia.org/wikipedia/commons/f/f8/Girard_College.jpg,"By evrik - Bruce Andersen, CC BY-SA 3.0, https://commons.wikimedia.org/w/index.php?curid=3176990",image/jpeg,1833,1833
iaahs053,Union A.M.E. Church / Hedding M. E. Church / Calvary Baptist Church,North,655 N. 16th St.,Philadelphia,PA,19130,church,"before 1859; alterations, 1902, Watson & Huckel; alterations, 1906, C. Davis",39.966666,-75.163569,Watson & Huckel;C. Davis,https://digital.librarycompany.org/islandora/object/digitool:97025/datastream/JPG/view,"Libray Company of Philadelphia, https://www.librarycompany.org/",image/jpeg,1859;1902;1906,1859
iaahs054,Unity Mission / Charles T. Ellis House,North,1430 N. Broad St.,Philadelphia,PA,19121,dwelling,"ca. 1891, William Decker",39.975493,-75.15912,William Decker,,,record,1891,1891
iaahs055,Metropolitan Opera House,North,848-860 N. Broad St.,Philadelphia,PA,19130,opera house; church,"1908, William McElfatrick",40.010581,-75.150898,William McElfatrick,https://upload.wikimedia.org/wikipedia/commons/6/6c/The_Met_Philadelphia_%2853574194471%29.jpg,"By ajay_suresh - The Met Philadelphia, CC BY 2.0, https://commons.wikimedia.org/w/index.php?curid=146171159",image/jpeg,1908,1908
iaahs056,Shibe Park / Connie Mack Stadium,North,2701 N. 21st St.,Philadelphia,PA,19132,stadium,"1908-1909, William Steele & Sons Co.; numerous alterations; demolished 1976",39.983256,-75.168608,William Steele & Sons Co.,https://upload.wikimedia.org/wikipedia/commons/thumb/9/9e/Grand_Stand_Entrance_of_Shibe_Park.jpg/440px-Grand_Stand_Entrance_of_Shibe_Park.jpg,"By George Grantham Bain Collection (Library of Congress). - This image is available from the United States Library of Congress's Prints and Photographs divisionunder the digital ID cph.3b26893.This tag does not indicate the copyright status of the attached work. A normal copyright tag is still required. See Commons:Licensing., Public Domain, https://commons.wikimedia.org/w/index.php?curid=8334231",image/jpeg,1908;1909;1976,1908
iaahs057,Divine Lorraine Hotel,North,699 N. Broad St.,Philadelphia,PA,19123,hotel; apartment building,"1894, Willis G. Hale",37.801124,-122.428063,Willis G. Hale,https://upload.wikimedia.org/wikipedia/commons/0/00/Divine_Lorraine_from_Southwest.JPG,"By Absecon 59 at English Wikipedia, CC BY-SA 3.0, https://commons.wikimedia.org/w/index.php?curid=10639617",image/jpeg,1894,1894
iaahs058,Baker Bowl,North,N. Broad and W. Lehigh Ave.,Philadelphia,PA,19132,stadium,1887; demolished 1950,39.9526248,-75.1569986,,https://upload.wikimedia.org/wikipedia/commons/e/e9/Baker_Bowl_and_Huntingdon_Street_station%2C_1928.jpg,"By Unknown author - Originally published in an unknown outlet shortly after being taken. This version is scanned from Diamonds: The Evolution of the Ballpark, page 145., Public Domain, https://commons.wikimedia.org/w/index.php?curid=49306297",image/jpeg,1887; 1950,1887
iaahs059,Black Panthers Headquarters,North,1928 Cecil B. Moore Ave.,Philadelphia,PA,19121,,,39.9444141,-75.1656692,,https://digital.library.temple.edu/digital/api/singleitem/image/p15037coll3/53359/default.jpg?highlightTerms=Black%20Panther%20Party,"This material is subject to copyright law and is made available for private study, scholarship, and research purposes only. For access to the original or a high resolution reproduction, and for permission to publish, please contact Temple University Libraries, Special Collections Research Center, scrc@temple.edu, 215-204-8257.",image/jpeg,,
iaahs060,Cyrus Bustill House,North,near 3rd and Green Sts.,Philadelphia,PA,19123,dwelling,,33.2194596,-117.232534,,,,record,,
iaahs061,David Bustill Bowser House,North,841 N. 4th St.,Philadelphia,PA,19123,dwelling,,40.0420208,-75.1803247,,https://upload.wikimedia.org/wikipedia/commons/thumb/4/4a/David_Bustill_Bowser.png/220px-David_Bustill_Bowser.png,"By Unknown author - Pennsylvania Heritage magazine, Winter 2001, vol.XXVII, no. 1. https://archive.org/stream/artisxxxxxxxxblinc#page/n75/mode/2up, Public Domain, https://commons.wikimedia.org/w/index.php?curid=61220599",image/jpeg,,
iaahs062,Ebenezer Don Carlos Bassett House,North,2121 N. 29th St.,Philadelphia,PA,19121,dwelling,,39.988316,-75.180225,,https://upload.wikimedia.org/wikipedia/en/8/86/EbenezerBassett.jpg,"By Unknown - BlackPast.org - http://www.blackpast.org/aah/bassett-ebenezer-d-1833-1908, PD-US, https://en.wikipedia.org/w/index.php?curid=31114452",image/jpeg,,
iaahs063,Fair Hill Burial Ground,North,2901 Germantown Ave.,Philadelphia,PA,19133,cemetery,1842,39.99678,-75.146065,,https://en.wikipedia.org/wiki/Fair_Hill_Burial_Ground#/media/File:Fair_Hill_Philly.JPG,"By Smallbones - Own work, Public Domain, https://commons.wikimedia.org/w/index.php?curid=11516316",image/jpeg,1842,1842
iaahs064,Jessie Redmon Fauset House,North,1853 N. 17th St.,Philadelphia,PA,19121,dwelling,ca. 1885,39.982106,-75.161803,,,,record,1885,1885
iaahs065,John W. Coltrane House,North,1511 N. 33rd St.,Philadelphia,PA,19121,dwelling,1895,39.980283,-75.188424,,https://upload.wikimedia.org/wikipedia/commons/thumb/7/73/ColtraneH.jpg/500px-ColtraneH.jpg,"By https://www.loc.gov/pictures/item/pa3863.photos.381323p, Public Domain, https://commons.wikimedia.org/w/index.php?curid=34382696",image/jpeg,1895,1895
iaahs066,Pearl Bailey House,North,1946 N. 23rd St.,Philadelphia,PA,19121,dwelling,ca. 1884-1886,39.984933,-75.1718,,https://upload.wikimedia.org/wikipedia/commons/4/44/Pearl_Bailey_-_publicity.jpg,"By William Morris Agency - ebay, Public Domain, https://commons.wikimedia.org/w/index.php?curid=28343387",image/jpeg,1884;1886,1884
iaahs067,Zoar Methodist Church Site,North,409 Brown St.,Philadelphia,PA,19123,church,,39.964018,-75.144913,,https://upload.wikimedia.org/wikipedia/commons/2/26/Zoar_Methodist_Episcopal_Church_-_Brown_St._above_4th%2C_north_side_three_doors_west_of_Fourth._%2820178549985%29.jpg,"By Library Company of Philadelphia - https://www.flickr.com/photos/library-company-of-philadelphia/20178549985/, No restrictions, https://commons.wikimedia.org/w/index.php?curid=52887206",image/jpeg,,
iaahs068,Bethany A.M.E. Church,Northeast,8820 Ashton Rd.,Philadelphia,PA,19136,church,"early 19th century; Elias Chase, builder",40.0421776,-75.1795724,"Elias Chase, builder",,,record,1900s,1900s
iaahs069,Janes Methodist Church Building,Northwest,47-51 E. Haines St.,Philadelphia,PA,19144,church,"1928, Charles Parker",40.03953,-75.176116,Charles Parker,,,record,1928,1928
iaahs070,Germantown Historical Society / Fromberger House,Northwest,5501-5505 Germantown Ave.,Philadelphia,PA,19144,dwelling; young women's christian association; church; office building,"ca. 1795-96; enlarged 1917; renovated after fire, 1930; rehabbed, 1952-54, G. Edwin",39.973054,-75.141599,G. Edwin,https://digital.librarycompany.org/islandora/object/Islandora:3587/datastream/JPG,Library Company of Philadelphia librarycompany.org,image/jpeg,1795;1796;1917;1930; 1952;1954,1795
iaahs071,Northern Home for Children,Northwest,5301 Ridge Ave.,Philadelphia,PA,19128,,"alterations, 1927, Horace Trumbauer (Julian Abele)",40.021044,-75.208578,Horace Trumbauer (Julian Abele),https://upload.wikimedia.org/wikipedia/commons/2/28/Northern_Home_for_Friendless_Children_%2819110485718%29.jpg,"By Library Company of Philadelphia - https://www.flickr.com/photos/library-company-of-philadelphia/19110485718/, No restrictions, https://commons.wikimedia.org/w/index.php?curid=41583110",image/jpeg,1927,1927
iaahs072,Grace Baptist Church Building #1,Northwest,34-36 E. Sharpnack St.,Philadelphia,PA,19119,church,"1908, Jacob Naschold",40.049813,-75.183061,Jacob Naschold,https://upload.wikimedia.org/wikipedia/commons/thumb/f/ff/Baptist_temple_postcard.jpg/440px-Baptist_temple_postcard.jpg,"By Temple University - Temple University, Attribution, https://commons.wikimedia.org/w/index.php?curid=10109627",image/jpeg,1908,1908
iaahs073,Canaan Baptist Church Building / West Side Presbyterian Church Building,Northwest,5430 Pulaski Ave.,Philadelphia,PA,19144,church,"1891, Mantle Fielding",39.822719,-84.8706574,Mantle Fielding,,,record,1891,1891
iaahs074,Germantown YMCA,Northwest,5722 Greene St.,Philadelphia,PA,19144,young men's Christian association,"1928, Thomas, Martin & Kirkpatrick",40.034007,-75.177817,"Thomas, Martin & Kirkpatrick",https://bpldcassets.blob.core.windows.net/derivatives/images/commonwealth:44558z74k/image_access_800.jpg,"Rights status not evaluated.
This work is licensed for use under a Creative Commons Attribution Non-Commercial Share Alike License (CC BY-NC-SA).",image/jpeg,1928,1928
iaahs075,Cliveden,Northwest,6401 Germantown Ave.,Philadelphia,PA,19119,dwelling; museum,"1763, 1764",41.662912,-72.782406,,https://upload.wikimedia.org/wikipedia/commons/thumb/4/4b/Cliveden_Mansion%2C_Philadelphia%2C_HABS_PA-1184-88.jpg/1600px-Cliveden_Mansion%2C_Philadelphia%2C_HABS_PA-1184-88.jpg,"By Jack Boucher - Historic American Buildings Survey; Library of Congress HABS PA,51-GERM,64-88, Public Domain, https://commons.wikimedia.org/w/index.php?curid=6571315",image/jpeg,1763;1764,1763
iaahs076,First Protest Against Slavery / Kunder House,Northwest,5109 Germantown Ave.,Philadelphia,PA,19144,dwelling,,39.973054,-75.141599,,https://upload.wikimedia.org/wikipedia/commons/a/ad/Thones_kunders_house.jpg,"By Unattributed - ""The Guide Book to Historic Germantown"" Jenkins, Charles F. (1915); Site and Relic Society, Germantown, Philadelphia, PA, Public Domain, https://commons.wikimedia.org/w/index.php?curid=116715265",image/jpeg,,
iaahs077,Sadie T. M. Alexander House,Northwest,700 Westview St.,Philadelphia,PA,19119,dwelling,,40.050941,-75.187245,,https://upload.wikimedia.org/wikipedia/commons/d/d8/Sadalex2.jpg,"By Unknown author - http://imagesvr.library.upenn.edu/cgi/i/image/image-idx?type=detail&cc=pennarchive&entryid=X-20020909007&viewid=1&sstrt=13&hits=59&q1=Sadie&cat1=All%20Categories&thsz=12&txsz=50&slsz=1&c=pennarchive, Public Domain, https://commons.wikimedia.org/w/index.php?curid=2346358",image/jpeg,,
iaahs078,Bainbridge Club / Hotel Brotherhood USA,South,1523-1529 Bainbridge St.,Philadelphia,PA,19146,clubhouse,"ca. 1919, A. Borzner",39.9939785,-75.1545321,A. Borzner,https://upload.wikimedia.org/wikipedia/commons/7/79/Hotel_Brotherhood_USA_Historical_Marker_1523_Bainbridge_St_Philadelphia_PA_%28DSC_4420%29.jpg,"By NMGiovannucci - Own work, CC BY-SA 4.0, https://commons.wikimedia.org/w/index.php?curid=110457072",image/jpeg,1919,1919
iaahs079,Gloria Dei Church / Old Swedes' Episcopal Church,South,916 S. Swanson St.,Philadelphia,PA,19147,church,"1677-1698, Andrew Rudman; alterations, 1703-1705, ca. 1733, 1845; alterations, 1896, George Champlin Mason, Jr.",39.916921,-75.146962,"Andrew Rudman;George Champlin Mason, Jr.",https://upload.wikimedia.org/wikipedia/commons/thumb/a/a5/Gloria_Dei_%28Church%29%2C_929_South_Water_Street%2C_Philadelphia%2C_Philadelphia_County%2C_PA_HABS_PA%2C51-PHILA%2C174-_%28sheet_3_of_10%29.png/664px-Gloria_Dei_%28Church%29%2C_929_South_Water_Street%2C_Philadelphia%2C_Philadelphia_County%2C_PA_HABS_PA%2C51-PHILA%2C174-_%28sheet_3_of_10%29.png,"By Related names:Rudman, Andrew - https://www.loc.gov/pictures/item/pa0760.sheet.00003a, Public Domain, https://commons.wikimedia.org/w/index.php?curid=34923971",image/jpeg,1677;1698;1703;1705;1733;1845;1896,1677
iaahs080,Elks Lodge,South,739-43 S. 16th St.,Philadelphia,PA,19146,,"ca. 1928, C. Adams",39.942034,-75.168896,C. Adams,https://upload.wikimedia.org/wikipedia/commons/4/4f/PhilaPaElksMagHotelAdvertize.jpg,"By BPOE #2 (Philadelphia Elks) - http://www.tommyjones.org/salisburyelks/elkshistory/Pa/PhilaPaElksMag5_1926HotelAdvertize.jpg, Public Domain, https://commons.wikimedia.org/w/index.php?curid=11733102",image/jpeg,1928,1928
iaahs081,St. Charles Borromeo Church,South,1941 Christian St.,Philadelphia,PA,19146,church,"1876, Edwin Forrest Durang",39.941299,-75.175457,Edwin Forrest Durang,https://digital.librarycompany.org/islandora/object/digitool:97183/datastream/JPG/view,"Libray Company of Philadelphia, https://www.librarycompany.org/",image/jpeg,1876,1876
iaahs082,Holy Trinity Baptist Church,South,1818-1824 Bainbridge St.,Philadelphia,PA,19146,church,"1900, Edwin Gilbert of Gilbert & Reid",39.942257,-75.161512,Edwin Gilbert of Gilbert & Reid,,,record,1900,1900
iaahs083,YWCA - Southwest-Belmont Branch,South,1607-15 Catharine St.,Philadelphia,PA,19146,young women's Christian association,"ca. 1922, Erskine, Morris",39.936955,-75.142769,"Erskine, Morris",https://digital.library.temple.edu/digital/api/singleitem/image/p16002coll2/86/default.jpg?highlightTerms=YWCA%20Philadelphia%20Branches%20Records,"This material is subject to copyright law and is made available for private study, scholarship, and research purposes only. For access to the original or a high resolution reproduction, and for permission to publish, please contact Temple University Libraries, Temple University Libraries, Special Collections Research Center, scrc@temple.edu, 215-204-8257.",image/jpeg,1922,1922
iaahs084,Shiloh Baptist Church #3 / Church of the Holy Apostles,South,2040 Christian St.,Philadelphia,PA,19146,church,"1868-1870, Fraser, Furness & Hewitt; alterations, 1890, George W. Hewitt",39.941156,-75.17749,"Fraser, Furness & Hewitt;George W. Hewitt",,,record,1868;1870;1890,1868
iaahs085,St. Martha's House / Houston Community Center,South,2029 S. 8th St.,Philadelphia,PA,19148,settlement house,"ca. 1914, Hastings Brockie",39.923225,-75.159555,Hastings Brockie,https://digital.librarycompany.org/islandora/object/digitool:97269/datastream/JPG/view,"Libray Company of Philadelphia, https://www.librarycompany.org/",image/jpeg,1914,1914
iaahs086,Varick Memorial Church Site,South,763 S. 19th St.,Philadelphia,PA,19146,church,"1889, Hazlehurst & Huckel",39.942029,-75.173852,Hazlehurst & Huckel,,,record,1889,1889
iaahs087,Church of the Crucifixion Building and Parish House,South,620 S. 8th St.,Philadelphia,PA,19147,church,"1883, Pursell & Fry; 1902, Isaac Pursell and Duhring, Okie & Ziegler",39.9449844,-75.1671013,Pursell & Fry; Isaac Pursell and Duhring;Okie & Ziegler,,,record,1883;1902,1883
iaahs088,First African Presbyterian Church / Tabor Chapel / St. Paul's German Reform Church / First Colored Wesley Methodist Church,South,1642 Fitzwater St.,Philadelphia,PA,19146,church,"1857, Samuel Sloan",39.942237,-75.170639,Samuel Sloan,,,record,1857,1857
iaahs089,Moyamensing Prison,South,10th and Reed Sts.,Philadelphia,PA,19147,prison,"ca. 1832-1835, Thomas Ustick Walter; many alterations; demolished 1968",39.990821,-75.168428,Thomas Ustick Walter,https://upload.wikimedia.org/wikipedia/commons/thumb/d/d6/Moyamensing_Prison%2C_c1840%2C_1848._%284700659588%29.jpg/500px-Moyamensing_Prison%2C_c1840%2C_1848._%284700659588%29.jpg,"By Library Company of Philadelphia - https://www.flickr.com/photos/library-company-of-philadelphia/4700659588/, No restrictions, https://commons.wikimedia.org/w/index.php?curid=41585695",image/jpeg,1832;1835;1968,1832
iaahs090,St. Simon the Cyrenian Church and Rectory,South,1401 S. 22nd St.,Philadelphia,PA,19146,church,"1905 (rectory), 1913-1914, Thomas, Churchman & Molitor",39.934379,-75.180644,"Thomas, Churchman & Molitor",,,record,1905;1913;1914,1905
iaahs091,First Penny Savings and Loan,South,2052 Bainbridge St.,Philadelphia,PA,19146,bank,"ca. 1914, W. Haddock",39.942257,-75.161512,W. Haddock,https://upload.wikimedia.org/wikipedia/commons/f/f3/306_Walnut_Street_from_west.jpg,"By Beyond My Ken - Own work, CC BY-SA 4.0, https://commons.wikimedia.org/w/index.php?curid=18785086",image/jpeg,1914,1914
iaahs092,First African Baptist Church Building,South,1600-1606 Christian St.,Philadelphia,PA,19146,church,"1904, Watson & Huckel",39.939942,-75.165555,Watson & Huckel,https://upload.wikimedia.org/wikipedia/commons/e/e9/First_African_Baptist_Church_Historical_Marker_1600_Christian_St_Philadelphia_PA_%28DSC_4156%29.jpg,"By NMGiovannucci - Own work, CC BY-SA 4.0, https://commons.wikimedia.org/w/index.php?curid=110457060",image/jpeg,1904,1904
iaahs093,Alain Leroy Locke House,South,2221 S. 5th St.,Philadelphia,PA,19148,dwelling,,39.9206044,-75.1552563,,https://upload.wikimedia.org/wikipedia/commons/3/31/Alain_LeRoy_Locke_cr.jpg,"By Unknown author - File:Alain LeRoy Locke.jpg, Public Domain, https://commons.wikimedia.org/w/index.php?curid=128911204",image/jpeg,,
iaahs094,Christian Street YMCA,South,1724 Christian St.,Philadelphia,PA,19146,young men's Christian association,ca. 1914; rebuilt 1969,44.9721788,-93.2639324,,https://upload.wikimedia.org/wikipedia/commons/e/ef/Christian_Street_YMCA_Historical_Marker_1724_Christian_St_Philadelphia_PA_%28DSC_4165%29.jpg,"By NMGiovannucci - Own work, CC BY-SA 4.0, https://commons.wikimedia.org/w/index.php?curid=110457053",image/jpeg,1914;1969,1914
iaahs095,Institute for Colored Youth,South,915 Bainbridge St.,Philadelphia,PA,19147,school,ca. 1865-1866,39.942014,-75.15791,,https://upload.wikimedia.org/wikipedia/commons/f/f5/Institute_for_Colored_Youth.JPG,"By Smallbones - Own work, Public Domain, https://commons.wikimedia.org/w/index.php?curid=10385368",image/jpeg,1865;1866,1865
iaahs096,Marian Anderson House,South,762 S. Martin St.,Philadelphia,PA,19146,dwelling; museum,,39.9424,-75.174771,,https://upload.wikimedia.org/wikipedia/commons/thumb/c/c3/M_Anderson_House_Philly.jpg/500px-M_Anderson_House_Philly.jpg,"By Smallbones - Own work, CC0, https://commons.wikimedia.org/w/index.php?curid=15434395",image/jpeg,,
iaahs097,Mercy Hospital - Site #1,South,17th and Fitzwater Sts.,Philadelphia,PA,19146,hospital,,39.942723,-75.174563,,,,record,,
iaahs098,St. Monica Mission Church Site,West,4206 Woodland Ave.,Philadelphia,PA,19104,church,"1914-1916, Duhring, Okie and Ziegler",39.949464,-75.199983,"Duhring, Okie and Ziegler",,,record,1914;1916,1914
iaahs099,Paul Leroy Robeson House,West,4951 Walnut St.,Philadelphia,PA,19139,dwelling,"1911, E.A. Wilson; alterations, ca. 1959",39.956688,-75.221373,E.A. Wilson,https://upload.wikimedia.org/wikipedia/commons/3/3b/Paul_Robeson_1942_crop.jpg,"By Gordon Parks, Office of War Information; cropped by Beyond My Ken (talk) 07:13, 3 February 2011 (UTC) - Library of Congress Prints and Photographs Division, Farm Security Administration - Office of War Information Photograph Collection. http://hdl.loc.gov/loc.pnp/fsa.8b14812, Public Domain, https://commons.wikimedia.org/w/index.php?curid=12890227",image/jpeg,1911;1959,1911
iaahs100,African Episcopal Church of St. Thomas Site #3,West,6361 Lancaster Ave.,Philadelphia,PA,19151,church,"1899, Frederick Mann; alterations, 1905, Baily & Bassett",39.9871825,-75.2510486,Frederick Mann;Baily & Bassett,https://upload.wikimedia.org/wikipedia/commons/thumb/3/30/African_Episcopal_Church_of_St._Thomas.jpg/440px-African_Episcopal_Church_of_St._Thomas.jpg,"By unknown but June 1829 - http://archive.episcopalchurch.org/images/AAM_parchment_photo1829.jpg, Public Domain, https://commons.wikimedia.org/w/index.php?curid=32494834",image/jpeg,1899;1905,1899
iaahs101,Allen A.M.E. Church Building #3 / Fourth Reformed Presbyterian Church Building,West,5901 Larchwood Ave.,Philadelphia,PA,19143,church,"1917, George D. Savage",39.9539121,-75.2406593,George D. Savage,,,record,1917,1917
iaahs102,Mount Pisgah A.M.E. Church / Centenary Methodist Church,West,428 N. 41st St.,Philadelphia,PA,19104,church,"ca. 1860s-1880s; alterations, 1901, H. King; alterations, 1913, James Fernald; rebuilt after fire, 1944",39.976197,-75.206385,H. King;James Fernald,https://upload.wikimedia.org/wikipedia/commons/d/d5/Mount_Pisgah_AME_Church.jpg,"By Bill Fitzpatrick - Own work, CC BY-SA 3.0, https://commons.wikimedia.org/w/index.php?curid=21033091",image/jpeg,1860s;1880s; 1901; 1913;1944,1860s
iaahs103,Irvine Auditorium (University of Pennsylvania),West,3401 Spruce St.,Philadelphia,PA,19104,auditorium,"ca. 1928, Horace Trumbauer (Julian Abele)",39.950877,-75.19301,Horace Trumbauer (Julian Abele),https://upload.wikimedia.org/wikipedia/commons/d/da/Irvine_Auditorium_-_UPenn_%2853590619400%29.jpg,"By ajay_suresh - Irvine Auditorium - UPenn, CC BY 2.0, https://commons.wikimedia.org/w/index.php?curid=146437716",image/jpeg,1928,1928
iaahs104,Otto Eisenlohr House / President's House (University of Pennsylvania),West,3812 Walnut St.,Philadelphia,PA,19104,dwelling,"ca. 1905, Horace Trumbauer (Julian Abele)",39.949649,-75.16673,Horace Trumbauer (Julian Abele),https://fedora.dlib.indiana.edu/fedora/get/iudl:2134882/LARGE,https://webapp1.dlib.indiana.edu/images/item.htm?id=http://purl.dlib.indiana.edu/iudl/images/VAC5094/VAC5094-03987,image/jpeg,1905,1905
iaahs105,Stephen Smith Home for the Aged and Infirmed,West,4400 W. Girard Ave.,Philadelphia,PA,19104,retirement home,"ca. 1883, Hutton, Addison",39.972816,-75.212586,"Hutton, Addison",https://coloredconventions.org/black-mobility/wp-content/uploads/sites/4/2018/10/Stephen-Smith-home-for-aged-and-infirm-colored-persons-e1539889228661.jpg,"Atwater Kent Collection, Drexel University",image/jpeg,1883,1883
iaahs106,Overbrook High School (Wilt Chamberlain),West,5898 Lancaster Ave.,Philadelphia,PA,19131,school,"1924, Irwin T. Catherine",39.974485,-75.220917,Irwin T. Catherine,https://upload.wikimedia.org/wikipedia/commons/thumb/2/26/Overbrook_High_School.JPG/500px-Overbrook_High_School.JPG,"By Smallbones - Own work, Public Domain, https://commons.wikimedia.org/w/index.php?curid=10531169",image/jpeg,1924,1924
iaahs107,Pinn Memorial Baptist Church / Har Zion Synagogue,West,2251 N. 54th St.,Philadelphia,PA,19131,church,"1922-1924, Leroy Rothschild; alterations and additions, 1940-1957, Silverman & Levey",39.993335,-75.233854,Leroy Rothschild;Silverman & Levey,,,record,1922;1924;1940;1957,1922
iaahs108,Lombard Central Presbyterian Church Building #2 / Friends Meeting House,West,4201 Powelton Ave.,Philadelphia,PA,19104,church,"ca. 1875; alterations, 1903, Morris & Vaux",39.959156,-75.206639,Morris & Vaux,,,record,1875;1903,1875
iaahs109,Crystal Bird Fauset House,West,5403 Vine St.,Philadelphia,PA,19139,dwelling,,39.9666702,-75.160056,,https://upload.wikimedia.org/wikipedia/commons/2/26/Crystal_Bird_Fauset.jpg,"By Roger Smith - https://www.loc.gov/pictures/item/2017854914/, Public Domain, https://commons.wikimedia.org/w/index.php?curid=89277533",image/jpeg,,
iaahs110,Freedom Now Rally (Dr. Martin Luther King Jr.),West,Lancaster and Haverford Aves.,Philadelphia,PA,19104,,,39.963926,-75.19431,,https://collaborativehistory.gse.upenn.edu/sites/default/files/Freedom%20Now%20Rally.png,Temple University Libraries,image/jpeg,,
iaahs111,MOVE site,West,6221 Osage Ave.,Philadelphia,PA,19143,,,39.955692,-75.24687,,https://collaborativehistory.gse.upenn.edu/sites/default/files/styles/large/public/AINRPZ201708000718.jpg?itok=7Av8bZ_R,Temple University Libraries,image/jpeg,,
iaahs112,Underground Railroad Museum at Belmont Mansion / American Women's Heritage Society,West,2000 Belmont Mansion Dr.,Philadelphia,PA,19131,dwelling; museum,"ca. 1742-1751; many additions and alterations, including ca. 1888 and 1905",39.985323,-75.213071,,https://upload.wikimedia.org/wikipedia/commons/2/22/WTP_A11_Techserv_1.jpg,"By See below - Wiki Takes Philadelphia, CC BY-SA 3.0, https://commons.wikimedia.org/w/index.php?curid=8076540",image/jpeg,1742;1751;1888;1905,1742
iaahs113,College Settlement / W. E. B. DuBois House,Center City,617 Rodman St.,Philadelphia,PA,19147,settlement house,,39.964834,-75.143959,,,,record,,
iaahs114,Colored Industrial School,Center City,20th below Walnut St.,Philadelphia,PA,,school,,39.9400207,-75.1799257,,,,record,,
iaahs115,Douglass Hotel (Billie Holiday Residence),Center City,1409-1411 Lombard St.,Philadelphia,PA,19146,hotel,1926,39.9616479,-75.2022775,,,,record,1926,1926
iaahs116,First African Baptist Church Cemetery,Center City,8th and Vine Sts.,Philadelphia,PA,19106,cemetery,1796,39.990821,-75.168428,,,,record,1796,1796
iaahs117,First African Baptist Church Site #2 / Cherry Street Baptist Church / Cherry Memorial Baptist Church,Center City,1025-1027 Cherry St.,Philadelphia,PA,19107,church,,39.963113,-75.229813,,,,record,,
iaahs118,Mayor Richardson Dilworth House,Center City,223-225 S. 6th St.,Philadelphia,PA,19106,dwelling,,39.949982,-75.150576,,,,record,,
iaahs119,North Penn Baptist Church,North,2419-2425 N. 27th St.,Philadelphia,PA,19132,church,"ca. 1911, Charles Wells",39.985261,-75.177145,Charles Wells,,,record,1911,1911
iaahs120,B.M. Oakley Memorial Temple / Trinity Reformed Church,North,1535 N. 7th St.,Philadelphia,PA,19122,church,"1869, Samuel Sloan",39.9420788,-75.1614584,Samuel Sloan,,,record,1869,1869
iaahs121,St. Paul Baptist Church / First Reformed Church Building,North,1000 Wallace St.,Philadelphia,PA,19123,church,"before 1888; alterations, 1916, 1920, 1929, Stuckert & Co.",39.963493,-75.217236,Stuckert & Co.,,,record,1888;1916;1920;1929,1888
iaahs122,Berean Presbyterian Church / Bethlehem Presbyterian Church,North,2101 N. Broad St.,Philadelphia,PA,19122,church,"1888, T. P. Chandler; alterations, 1909, 1910, 1915, J. Franklin Stuckert",39.9444019,-75.1787656,T. P. Chandler;J. Franklin Stuckert,,,record,1888;1909;1910;1915,1888
iaahs123,Negro People's Theater of Philadelphia,North,311 N. 16th St.,Philadelphia,PA,19102,,,40.042469,-75.146943,,,,record,,
iaahs124,Robert Purvis Estate,Northeast,Byberry and Thornton Roads,Philadelphia,PA,19154,dwelling,ca. 1770,39.990821,-75.168428,,,,record,1770,1770
iaahs125,Coulter Street School site / Daniel L. Keyser School / Wissahickon Boys and Girls Club,Northwest,328 W. Coulter St.,Philadelphia,PA,19144,school,"ca. 1887-1899, Joseph Anshutz",39.993189,-75.106902,Joseph Anshutz,,,record,1887;1899,1887
iaahs126,Galilee Baptist Church Building,Northwest,457 Roxborough Ave.,Philadelphia,PA,19128,church,"1900, Kennedy & Kelsey",40.028745,-75.213417,Kennedy & Kelsey,,,record,1900,1900
iaahs127,Thomas Meehan Public School,Northwest,5347-5353 Pulaski Ave.,Philadelphia,PA,19144,school,"1901, Lloyd Titus",40.032722,-75.182942,Lloyd Titus,,,record,1901,1901
iaahs128,Grace Baptist Church Building #2,Northwest,25 W. Johnson St.,Philadelphia,PA,19144,church,"late 1960s, Mansell, McGettigan & Fugate",40.037799,-75.190539,"Mansell, McGettigan & Fugate",,,record,1960s,1960s
iaahs129,Janes Methodist Church Building,Northwest,528 E. Haines St.,Philadelphia,PA,19144,church,"ca. 1898 or 1911, Rankin and Kellogg",40.04493,-75.169789,Rankin and Kellogg,,,record,1898;1911,1898
iaahs130,Bethel A.M.E. Church (Germantown) Building #2 / Rialto Theater Building / Tulpehocken Theater Building,Northwest,6153 Germantown Ave.,Philadelphia,PA,19144,church,"1914, architect unknown; alterations, William H. Lee, c. 1936; alterations c.1976",39.943066,-75.151993,William H. Lee,,,record,1914;1936;1976,1914
iaahs131,Germantown Industrial School for Colored Women,Northwest,30 Armat St.,Philadelphia,PA,19144,school,,39.990821,-75.168428,,,,record,,
iaahs132,Johnson House,Northwest,6306 Germantown Ave.,Philadelphia,PA,19144,dwelling,1768,39.973054,-75.141599,,,,record,1768,1768
iaahs133,Union Baptist Church Building #2,South,1910 Fitzwater St.,Philadelphia,PA,19146,church,"1913, Charles Bolton & Son; alterations, 1926, Charles Bolton & Son",39.942723,-75.174563,Charles Bolton & Son;Charles Bolton & Son,,,record,1913;1926,1913
iaahs134,Harrison Day Nursery,South,1839-1843 Ellsworth St.,Philadelphia,PA,19146,day care,"1898, Furness, Evans and Co.",39.933044,-75.146626,"Furness, Evans and Co.",,,record,1898,1898
iaahs135,Zion A.M.E. Church,South,1600 S. 21st St.,Philadelphia,PA,19145,church,"1925-1928, George E. Savage",39.931847,-75.180092,George E. Savage,,,record,1925;1928,1925
iaahs136,St. Mary Chapel Building,South,1831-1835 Bainbridge St.,Philadelphia,PA,19146,church,"1897, Hazlehurst & Huckel",39.942257,-75.161512,Hazlehurst & Huckel,,,record,1897,1897
iaahs137,Friendship Baptist Church / 18th Street Baptist Church / 18th Street Methodist Episcopal Church,South,1730 Wharton St.,Philadelphia,PA,19146,church,"1885-1888, J. Franklin Stuckert",39.934777,-75.173805,J. Franklin Stuckert,,,record,1885;1888,1885
iaahs138,Tasker Street Baptist Church / Metropolitan Baptist Church,South,2010 Tasker St.,Philadelphia,PA,19145,church,"ca. 1900, S. Bythewood; alterations, 1928 and 1940, Richard R. Neely",39.930982,-75.172246,S. Bythewood;Richard R. Neely,,,record,1900;1928;1940,1900
iaahs139,Union Baptist Building #1 / New Hope Temple Baptist Church,South,711-715 S. 12th St.,Philadelphia,PA,19147,church,"1893, Thomas Bennett",39.932836,-75.164046,Thomas Bennett,,,record,1893,1893
iaahs140,Shiloh Baptist Church #1 / Murray Chapel / Mount Olive A.M.E. Church / Waters Memorial A.M.E. Church,South,609 S. Clifton St.,Philadelphia,PA,19147,church,"ca. 1840; alterations, 1895, Wilson Brothers; alterations, 1921, C. Wilson; alterations, 1953",39.942645,-75.159714,Wilson Brothers;C. Wilson,,,record,1840;1895;1921;1953,1840
iaahs141,Dutrieuille Catering Site #2,West,4001 Spring Garden St.,Philadelphia,PA,19104,caterer,"ca. 1888, A. Wade",39.9176146,-75.1668377,A. Wade,,,record,1888,1888
iaahs142,First African Presbyterian Church / Emmanuel Presbyterian Church,West,4159 W. Girard Ave.,Philadelphia,PA,19104,church,"1912, Charles Bolton & Son",39.973946,-75.209674,Charles Bolton & Son,,,record,1912,1912
iaahs143,St. Matthew Church Building,West,215 N. 57th St.,Philadelphia,PA,19139,church,"1940, Charles Bolton & Son",39.964697,-75.233722,Charles Bolton & Son,,,record,1940,1940
iaahs144,Bethel Baptist Church,West,4033-4037 Haverford Ave.,Philadelphia,PA,19104,church,"1924, Clarence Caspary",39.9413541,-75.1621808,Clarence Caspary,,,record,1924,1924
iaahs145,Franklin Field,West,33rd and Spruce Streets,Philadelphia,PA,19104,stadium,"1922, Day & Klauder",39.990821,-75.168428,Day & Klauder,,,record,1922,1922
iaahs146,Mount Carmel Baptist Church,West,5732 Race St.,Philadelphia,PA,19139,church,"1915, Henry DeHoff; alterations, 1938, Charles Bolton & Sons; main sanctuary, post-World War II",39.964312,-75.235491,Henry DeHoff;Charles Bolton & Sons,,,record,1915;1938,1915
iaahs147,Clanerda Presbyterian Church,West,34th and Girard Sts.,Philadelphia,PA,19104,church,"ca. 1912, Horace Trumbauer (Julian Abele)",39.942743,-75.152895,Horace Trumbauer (Julian Abele),,,record,1912,1912
iaahs148,Zoological Society Building,West,34th and Girard Sts.,Philadelphia,PA,19104,,"ca. 1912, Horace Trumbauer (Julian Abele)",39.990821,-75.168428,Horace Trumbauer (Julian Abele),,,record,1912,1912
iaahs149,Star of Hope Baptist Church,West,443 N. 60th St.,Philadelphia,PA,19151,church,"ca. 1962, James Plater",39.969076,-75.239025,James Plater,,,record,1962,1962
iaahs150,Tyree A.M.E. Church / 10th United Presbyterian Church,West,3800 Hamilton St.,Philadelphia,PA,19104,church,"1886, Lawrence Valk",39.961293,-75.19721,Lawrence Valk,,,record,1886,1886
iaahs151,Tyree A.M.E. Church (?) / Williams Chapel / Metropolitan Baptist Church / First United Baptist Church,West,3728-3730 Haverford Ave.,Philadelphia,PA,19104,church,"before 1922; alterations as church, 1937, Richard Neely",39.968301,-75.23486,Richard Neely,,,record,1922;1937,1922
iaahs152,Monumental Baptist Church / First Reformed Church,West,4948 Locust St.,Philadelphia,PA,19139,church,"1923-1925, Stuckert & Co.",39.955048,-75.221354,Stuckert & Co.,,,record,1923;1925,1923
iaahs153,"United Mission Church / Pennsylvania Railroad Branch, YMCA / Second Antioch Baptist Church",West,907 N. 41st St.,Philadelphia,PA,19104,church,"1892, T. P. Lonsdale",39.976197,-75.206385,T. P. Lonsdale,,,record,1892,1892
iaahs154,White Rock Baptist Church / St. Matthew M.E. Church,West,5240-5244 Chestnut St.,Philadelphia,PA,19139,church,"original church building, 1889-1890, T. P. Lonsdale; parish house, 1899, T. P. Lonsdale; substantial chapel addition, 1908, Wesl",39.957881,-75.220335,T. P. Lonsdale;T. P. Lonsdale;Wesl,,,record,1889;1890;1899;1908,1889
iaahs155,St. Michael and All Angels Chapel / Bethany Baptist Church / Victory Baptist Church,West,4238 Wallace St.,Philadelphia,PA,19104,church,"1889, William Camac, project architect, in firm of Furness, Evans & Co.; alterations, 1920, John E. Bullock",39.963341,-75.20862,"William Camac;Furness, Evans & Co.;John E. Bullock",,,record,1889;1920,1889
iaahs156,Shelter for Colored Orphans,West,44th and Haverford Ave.,Philadelphia,PA,19104,orphanage,,39.990821,-75.168428,,,,record,,